<?xml version="1.0" encoding="utf-8"?>
<ArrayOfVolunteer xmlns:xsi="http://www.w3.org/2001/XMLSchema-instance" xmlns:xsd="http://www.w3.org/2001/XMLSchema">
  <Volunteer>
    <Id>726172349</Id>
    <FullName>moti amar</FullName>
    <Phone>0524815812</Phone>
    <Email>moti.amar@gmail.com</Email>
    <Password>moti amarpass0</Password>
    <Address>Bustanei 15, jerusalem</Address>
    <Latitude>35.2126784</Latitude>
    <Longitude>31.7648204</Longitude>
    <Role>Volunteer</Role>
    <Active>true</Active>
    <MaximumDistance>70318</MaximumDistance>
    <DistanceType>Air</DistanceType>
  </Volunteer>
  <Volunteer>
    <Id>236153821</Id>
    <FullName>elya motai</FullName>
    <Phone>0501234567</Phone>
    <Email>elya.motai@yahoo.com</Email>
    <Password>elya motaipass4</Password>
    <Address>yehoshua ben gamla 13, jerusalem</Address>
    <Latitude>35.2124199</Latitude>
    <Longitude>31.7611362</Longitude>
    <Role>Volunteer</Role>
    <Active>true</Active>
    <MaximumDistance>99727</MaximumDistance>
    <DistanceType>Car</DistanceType>
  </Volunteer>
  <Volunteer>
    <Id>810772020</Id>
    <FullName>iosi yoskovich</FullName>
    <Phone>0527654321</Phone>
    <Email>iosi.yoskovich@icloud.com</Email>
    <Password>iosi yoskovichpass8</Password>
    <Address>hala 13, jerusalem</Address>
    <Latitude>35.2087076</Latitude>
    <Longitude>31.7638657</Longitude>
    <Role>Volunteer</Role>
    <Active>false</Active>
    <MaximumDistance>70739</MaximumDistance>
    <DistanceType>Walk</DistanceType>
  </Volunteer>
  <Volunteer>
    <Id>422954990</Id>
    <FullName>david gindi</FullName>
    <Phone>0549876543</Phone>
    <Email>david.gindi@hotmail.com</Email>
    <Password>david gindipass12</Password>
    <Address>beit haarava 28, jerusalem</Address>
    <Latitude>35.2203343</Latitude>
    <Longitude>31.7483032</Longitude>
    <Role>Volunteer</Role>
    <Active>false</Active>
    <MaximumDistance>87053</MaximumDistance>
    <DistanceType>Air</DistanceType>
  </Volunteer>
  <Volunteer>
    <Id>335035184</Id>
    <FullName>yuval michaeli</FullName>
    <Phone>0584567890</Phone>
    <Email>yuval.michaeli@gmail.com</Email>
    <Password>yuval michaelipass16</Password>
    <Address>harav herzog, jerusalem</Address>
    <Latitude>35.1994883</Latitude>
    <Longitude>31.7589875</Longitude>
    <Role>Volunteer</Role>
    <Active>false</Active>
    <MaximumDistance>68083</MaximumDistance>
    <DistanceType>Air</DistanceType>
  </Volunteer>
  <Volunteer>
    <Id>740776588</Id>
    <FullName>dan zilber</FullName>
    <Phone>0533210987</Phone>
    <Email>dan.zilber@yahoo.com</Email>
    <Password>dan zilberpass20</Password>
    <Address>bosem 12,jerusalem</Address>
    <Latitude>35.1889476</Latitude>
    <Longitude>31.7342954</Longitude>
    <Role>Volunteer</Role>
    <Active>true</Active>
    <MaximumDistance>85048</MaximumDistance>
    <DistanceType>Car</DistanceType>
  </Volunteer>
  <Volunteer>
    <Id>720487115</Id>
    <FullName>meir nahum</FullName>
    <Phone>0555678901</Phone>
    <Email>meir.nahum@hotmail.com</Email>
    <Password>meir nahumpass24</Password>
    <Address>hanamer 17, jerusalem</Address>
    <Latitude>35.1805822</Latitude>
    <Longitude>31.7518568</Longitude>
    <Role>Volunteer</Role>
    <Active>false</Active>
    <MaximumDistance>89030</MaximumDistance>
    <DistanceType>Air</DistanceType>
  </Volunteer>
  <Volunteer>
    <Id>933150617</Id>
    <FullName>izchak grinvald</FullName>
    <Phone>0501112222</Phone>
    <Email>izchak.grinvald@outlock.com</Email>
    <Password>izchak grinvaldpass28</Password>
    <Address>hahalutz 17, jerusalem</Address>
    <Latitude>35.1927184</Latitude>
    <Longitude>31.7810136</Longitude>
    <Role>Volunteer</Role>
    <Active>false</Active>
    <MaximumDistance>76948</MaximumDistance>
    <DistanceType>Walk</DistanceType>
  </Volunteer>
  <Volunteer>
    <Id>722247939</Id>
    <FullName>shalom salam</FullName>
    <Phone>0523334444</Phone>
    <Email>shalom.salam@icloud.com</Email>
    <Password>shalom salampass32</Password>
    <Address>harav uziel 80,jerusalem </Address>
    <Latitude>35.187882091894366</Latitude>
    <Longitude>31.76552192492391</Longitude>
    <Role>Volunteer</Role>
    <Active>false</Active>
    <MaximumDistance>99272</MaximumDistance>
    <DistanceType>Car</DistanceType>
  </Volunteer>
  <Volunteer>
    <Id>381662543</Id>
    <FullName>meir morgnshtain</FullName>
    <Phone>0545526673</Phone>
    <Email>meir.morgnshtain@gmail.com</Email>
    <Password>meir morgnshtainpass36</Password>
    <Address>harav beztalel zulti 19, jerusalem</Address>
    <Latitude>35.21696116035834</Latitude>
    <Longitude>31.810386702304726</Longitude>
    <Role>Volunteer</Role>
    <Active>true</Active>
    <MaximumDistance>79928</MaximumDistance>
    <DistanceType>Air</DistanceType>
  </Volunteer>
  <Volunteer>
    <Id>15741606</Id>
    <FullName>eden cohen</FullName>
    <Phone>0587748876</Phone>
    <Email>eden.cohen@hotmail.com</Email>
    <Password>eden cohenpass40</Password>
    <Address>shderot moshe daiian 109, jerusalem</Address>
    <Latitude>35.24036075232489</Latitude>
    <Longitude>31.828473377413367</Longitude>
    <Role>Volunteer</Role>
    <Active>true</Active>
    <MaximumDistance>85677</MaximumDistance>
    <DistanceType>Walk</DistanceType>
  </Volunteer>
  <Volunteer>
    <Id>76561398</Id>
    <FullName>shimon cohen</FullName>
    <Phone>0529950030</Phone>
    <Email>shimon.cohen@yahoo.com</Email>
    <Password>shimon cohenpass44</Password>
    <Address>harav maymon 1, jerusalem</Address>
    <Latitude>35.199124630657806</Latitude>
    <Longitude>31.788846938792492</Longitude>
    <Role>Volunteer</Role>
    <Active>false</Active>
    <MaximumDistance>59099</MaximumDistance>
    <DistanceType>Car</DistanceType>
  </Volunteer>
  <Volunteer>
    <Id>172780181</Id>
    <FullName>david hadad</FullName>
    <Phone>0558767765</Phone>
    <Email>david.hadad@gmail.com</Email>
    <Password>david hadadpass48</Password>
    <Address>a.m brachiu 7, jerusalem</Address>
    <Latitude>35.18891765398783</Latitude>
    <Longitude>31.77681135390754</Longitude>
    <Role>Volunteer</Role>
    <Active>false</Active>
    <MaximumDistance>98260</MaximumDistance>
    <DistanceType>Car</DistanceType>
  </Volunteer>
  <Volunteer>
    <Id>180640021</Id>
    <FullName>elly hadar</FullName>
    <Phone>0528775432</Phone>
    <Email>elly.hadar@icloud.com</Email>
    <Password>elly hadarpass52</Password>
    <Address>yzthar 25,jerusalem</Address>
    <Latitude>35.18926428816602</Latitude>
    <Longitude>31.738258839334225</Longitude>
    <Role>Volunteer</Role>
    <Active>false</Active>
    <MaximumDistance>72640</MaximumDistance>
    <DistanceType>Air</DistanceType>
  </Volunteer>
  <Volunteer>
    <Id>221092661</Id>
    <FullName>nuriel hadad</FullName>
    <Phone>0528765432</Phone>
    <Email>nuriel.hadad@yahoo.com</Email>
    <Password>nuriel hadadpass56</Password>
    <Address>menachem mashkaloc 21, jerusalem</Address>
    <Latitude>35.17470578874885</Latitude>
    <Longitude>31.786734640142832</Longitude>
    <Role>Volunteer</Role>
    <Active>false</Active>
    <MaximumDistance>63052</MaximumDistance>
    <DistanceType>Car</DistanceType>
  </Volunteer>
  <Volunteer>
    <Id>569768724</Id>
    <FullName>israel gadisha</FullName>
    <Phone>0542109876</Phone>
    <Email>israel.gadisha@gmail.com</Email>
    <Password>israel gadishapass60</Password>
    <Address>aharon brend 12,jerusalem</Address>
    <Latitude>35.17222213737034</Latitude>
    <Longitude>31.784020945981794</Longitude>
    <Role>Manager</Role>
    <Active>true</Active>
    <MaximumDistance>79878</MaximumDistance>
    <DistanceType>Walk</DistanceType>
  </Volunteer>
</ArrayOfVolunteer>